City_ID,City,Lat,Lng,Max Temp,Humidity,Cloudiness,Wind Speed,Country,Date
0,grytviken,-54.2811,-36.5092,0.76,76,100,2.13,GS,1704177046
1,port-aux-francais,-49.35,70.2167,4.8,76,56,16.77,TF,1704177046
2,lianyuan,27.6883,111.6642,9.02,84,100,1.94,CN,1704177048
3,whitehorse,60.7161,-135.0538,-13.57,92,100,2.06,CA,1704177048
4,hawaiian paradise park,19.5933,-154.9731,22.15,90,75,2.57,US,1704177049
5,waitangi,-43.9535,-176.5597,14.9,85,95,3.58,NZ,1704177050
6,fale old settlement,-9.3852,-171.2468,28.98,71,51,2.98,TK,1704177050
7,tiksi,71.6872,128.8694,-28.69,100,100,0.48,RU,1704177052
8,vorgashor,67.5833,63.95,-33.74,100,21,0.99,RU,1704177053
9,colipapa,9.4726,122.5616,30.37,65,98,3.62,PH,1704177053
10,flying fish cove,-10.4217,105.6791,28.82,78,100,5.14,CX,1704177054
11,isafjordur,66.0755,-23.124,3.74,95,99,5.27,IS,1704177055
12,wailua homesteads,22.0669,-159.378,21.44,80,75,4.63,US,1704177057
13,iqaluit,63.7506,-68.5145,-26.15,64,75,2.06,CA,1704177058
14,dhidhdhoo,6.8833,73.1,27.52,77,75,3.91,MV,1704177059
15,fortaleza,-3.7227,-38.5247,26.07,89,20,2.06,BR,1704177060
16,mount isa,-20.7333,139.5,40.87,18,40,4.12,AU,1704177060
17,kalemie,-5.9475,29.1947,21.87,90,100,1.45,CD,1704177061
18,albany,42.6001,-73.9662,-3.39,76,2,1.79,US,1704177003
19,ushtobe,45.2514,77.9838,8.16,44,93,7.67,KZ,1704177062
20,ancud,-41.8697,-73.8203,11.66,92,93,0.53,CL,1704176882
21,enewetak,11.3474,162.3373,27.62,72,100,8.66,MH,1704177064
22,bayramaly,37.6185,62.1671,4.86,44,100,1.58,TM,1704177064
23,marsh harbour,26.5412,-77.0636,20.04,58,100,6.41,BS,1704177065
24,abu,24.6,72.7,19.74,32,0,0.94,IN,1704177066
25,happy valley-goose bay,53.3168,-60.3315,-10.83,67,100,2.57,CA,1704177066
26,edinburgh of the seven seas,-37.0676,-12.3116,16.47,89,100,1.11,SH,1704177067
27,moussoro,13.6408,16.4901,21.22,17,100,5.42,TD,1704177068
28,nadi,-17.8,177.4167,29.0,74,40,5.14,FJ,1704177068
29,dzhetygara,52.1908,61.2006,-14.11,88,10,5.63,KZ,1704177069
30,newman,37.3138,-121.0208,7.24,92,5,1.34,US,1704177070
31,el abiodh sidi cheikh,32.893,0.5484,5.55,78,0,2.24,DZ,1704177070
32,puerto quijarro,-17.7833,-57.7667,23.19,99,100,0.74,BO,1704177071
33,puerto ayora,-0.7393,-90.3518,24.75,98,13,1.34,EC,1704177071
34,sao raimundo nonato,-9.0153,-42.6994,22.53,95,76,1.13,BR,1704177072
35,petropavlovsk-kamchatsky,53.0452,158.6483,-12.67,77,75,7.6,RU,1704177043
36,ushuaia,-54.8,-68.3,7.81,93,0,2.57,AR,1704176835
37,slave lake,55.2834,-114.769,-8.01,93,100,2.06,CA,1704177074
38,diamond harbour,22.1917,88.1847,27.42,20,0,4.23,IN,1704177075
39,ukhta,63.5671,53.6835,-36.36,99,49,1.79,RU,1704177076
40,adamstown,-25.066,-130.1015,23.45,85,100,3.95,PN,1704177077
41,yekaterinovka,52.0508,44.3451,-2.51,97,100,6.96,RU,1704177077
42,barranquilla,10.9639,-74.7964,26.88,83,0,5.14,CO,1704177002
43,blackmans bay,-43.0167,147.3167,20.41,72,100,1.34,AU,1704177079
44,mabaruma,8.2,-59.7833,21.99,99,93,0.94,GY,1704177079
45,prince rupert,54.3161,-130.3201,6.05,80,100,9.26,CA,1704177080
46,puerto natales,-51.7236,-72.4875,11.13,97,100,1.61,CL,1704177081
47,talnakh,69.4865,88.3972,-32.1,88,32,1.13,RU,1704177082
48,aljezur,37.3191,-8.8033,14.23,94,88,2.74,PT,1704177084
49,nikolayevsk-on-amure,53.1406,140.73,-18.38,93,100,1.19,RU,1704177084
50,bethel,41.3712,-73.414,-0.8,71,0,1.54,US,1704176984
51,vila franca do campo,37.7167,-25.4333,18.27,99,100,3.22,PT,1704177086
52,bredasdorp,-34.5322,20.0403,23.68,67,16,4.7,ZA,1704177086
53,kangding,30.0513,101.9603,6.23,64,91,2.96,CN,1704177087
54,stanley,54.868,-1.6985,7.93,96,75,1.03,GB,1704177088
55,college,64.8569,-147.8028,-21.01,81,20,4.12,US,1704177089
56,vilyuchinsk,52.9306,158.4028,-11.85,76,97,5.14,RU,1704177089
57,invercargill,-46.4,168.35,15.01,77,38,5.81,NZ,1704177090
58,anadyr,64.75,177.4833,-7.72,86,20,13.0,RU,1704177091
59,smithers,54.7804,-127.1743,-1.82,100,100,1.03,CA,1704177091
60,minas de marcona,-15.2119,-75.1103,16.15,86,60,4.13,PE,1704177092
61,jamestown,42.097,-79.2353,-0.23,92,100,1.54,US,1704177093
62,yerofey pavlovich,53.9667,121.9667,-18.29,94,100,1.11,RU,1704177093
63,mata-utu,-13.2816,-176.1745,28.22,78,73,4.65,WF,1704177094
64,atafu village,-8.5421,-172.5159,28.86,70,100,3.32,TK,1704177095
65,thompson,55.7435,-97.8558,-10.91,85,100,3.09,CA,1704177011
66,levuka,50.1834,-105.4011,-9.1,89,11,3.01,CA,1704177096
67,urucara,-2.5364,-57.76,23.67,93,20,1.27,BR,1704177097
68,yellowknife,62.456,-114.3525,-17.71,85,100,4.63,CA,1704176866
69,lorengau,-2.0226,147.2712,29.57,71,32,2.23,PG,1704177098
70,olonkinbyen,70.9221,-8.7187,0.11,96,100,4.23,SJ,1704177099
71,west island,-12.1568,96.8225,29.99,79,75,7.72,CC,1704177101
72,howrah,22.5892,88.3103,19.0,63,0,2.57,IN,1704177101
73,avarua,-21.2078,-159.775,25.03,78,1,1.54,CK,1704177102
74,homer,59.6425,-151.5483,3.94,60,40,5.14,US,1704177103
75,leshan,29.5623,103.7639,17.09,46,34,1.57,CN,1704176953
76,kardla,58.9978,22.7492,-15.01,78,0,6.17,EE,1704177104
77,labrador city,52.9463,-66.9114,-11.05,79,100,5.14,CA,1704177010
78,uturoa,-16.7333,-151.4333,27.95,80,100,4.08,PF,1704177105
79,margaret river,-33.95,115.0667,24.45,51,7,8.27,AU,1704177106
80,thinadhoo,0.5333,72.9333,27.84,72,100,1.24,MV,1704177107
81,kenai,60.5544,-151.2583,-3.97,74,0,9.77,US,1704177107
82,conde,-7.2597,-34.9075,22.7,100,0,2.06,BR,1704177108
83,la ronge,55.1001,-105.2842,-6.86,73,100,3.6,CA,1704177109
84,hamilton,39.1834,-84.5333,2.7,83,100,2.68,US,1704177008
85,santa ana de yacuma,-13.75,-65.4333,24.42,90,100,3.26,BO,1704177111
86,naryn,41.4287,75.9911,-6.13,61,100,0.13,KG,1704177111
87,sept-iles,50.2001,-66.3821,-6.0,86,100,4.47,CA,1704176982
88,camana,-16.6228,-72.7111,20.9,83,57,2.24,PE,1704177113
89,lebu,-37.6167,-73.65,13.09,86,2,6.92,CL,1704176871
90,chaiyaphum,15.75,102.0,31.0,32,8,2.83,TH,1704177114
91,dabakala,8.3667,-4.4333,21.47,69,19,1.79,CI,1704177114
92,gadzhiyevo,69.2551,33.3362,-16.77,82,100,9.27,RU,1704177115
93,jiagedaqi,50.4167,124.1167,-14.46,90,16,0.72,CN,1704177116
94,naranjo,10.0987,-84.3782,20.4,91,39,2.05,CR,1704177116
95,iskateley,67.6803,53.1512,-25.55,100,78,1.79,RU,1704177117
96,beibei,29.8256,106.4339,13.54,80,100,0.41,CN,1704177118
97,velikiy ustyug,60.7644,46.3106,-32.56,99,81,1.79,RU,1704177118
98,georgetown,5.4112,100.3354,31.96,74,20,4.12,MY,1704176962
99,satara,17.6833,73.9833,25.97,36,22,3.28,IN,1704176942
100,kisangani,0.5167,25.2,26.75,76,41,1.18,CD,1704177120
101,ajdabiya,30.7554,20.2263,14.17,58,52,3.31,LY,1704177121
102,bilibino,68.0546,166.4372,-24.02,92,99,0.44,RU,1704177122
103,utrik,11.2278,169.8474,27.23,79,95,10.03,MH,1704177122
104,rongelap,11.1635,166.8941,27.45,77,21,9.76,MH,1704177123
105,flin flon,54.7682,-101.865,-10.76,89,100,3.94,CA,1704177124
106,ilulissat,69.2167,-51.1,-8.99,38,17,7.2,GL,1704177124
107,kalabo,-14.97,22.6814,24.5,70,62,1.99,ZM,1704177125
108,lazaro cardenas,17.9583,-102.2,22.3,65,76,1.72,MX,1704176990
109,baza,37.4907,-2.7726,5.16,62,87,1.23,ES,1704177126
110,douglas,41.3,-96.167,-2.51,91,0,0.89,US,1704176958
111,taroa,8.7058,171.2275,27.66,78,25,8.3,MH,1704177128
112,dalandzadgad,43.5708,104.425,-4.18,42,0,1.18,MN,1704177128
113,vadso,70.0744,29.7487,-10.91,79,20,8.23,NO,1704177129
114,ishikawa,26.4233,127.8214,22.18,46,40,2.06,JP,1704177130
115,el charco,2.4769,-78.1105,23.42,98,100,1.99,CO,1704177130
116,turinsk,58.0458,63.696,-22.45,94,100,4.87,RU,1704177131
117,bayji,34.9311,43.487,14.24,37,100,1.64,IQ,1704177132
118,axtla de terrazas,21.4667,-98.85,19.18,84,100,1.66,MX,1704177133
119,kirakira,-10.4544,161.9205,28.19,83,84,2.75,SB,1704177133
120,kasulu,-4.5767,30.1025,19.18,89,100,0.9,TZ,1704177134
121,kone,-21.0595,164.8658,28.8,63,98,1.76,NC,1704177135
122,myeik,12.4333,98.6,30.3,55,100,4.11,MM,1704177135
123,jiayuguan,39.8167,98.3,2.08,26,0,4.16,CN,1704177136
124,susuman,62.7833,148.1667,-31.12,98,100,0.45,RU,1704177138
125,new norfolk,-42.7826,147.0587,21.07,66,100,2.01,AU,1704177139
126,noosa heads,-26.3833,153.15,22.84,89,100,9.08,AU,1704177002
127,mount gambier,-37.8333,140.7667,22.84,66,5,6.15,AU,1704177140
128,vizinga,61.0749,50.1031,-33.48,99,22,1.44,RU,1704177141
129,turpan,42.9333,89.1667,2.52,40,14,0.72,CN,1704177141
130,madras,13.0878,80.2785,27.99,69,40,5.14,IN,1704177004
131,kingscliff,-28.2667,153.5667,26.89,61,40,8.23,AU,1704177144
132,papatowai,-46.5619,169.4708,14.73,68,50,4.38,NZ,1704177145
133,grand falls-windsor,48.9332,-55.6649,-10.28,84,18,1.95,CA,1704177145
134,qaqortoq,60.7167,-46.0333,-8.8,73,100,3.11,GL,1704176956
135,jawf al maqbabah,13.8378,45.8349,23.49,46,13,2.09,YE,1704177147
136,hwange,-18.3693,26.5019,28.34,51,45,3.51,ZW,1704177147
137,crucecita,-28.95,-58.9833,19.11,85,8,2.47,AR,1704177148
138,puerto san jose,13.9256,-90.8244,24.17,76,1,1.86,GT,1704177149
139,fisterra,42.9049,-9.2629,14.86,90,100,16.12,ES,1704177150
140,kalmunai,7.4167,81.8167,24.92,91,100,2.99,LK,1704177151
141,auki,-8.7676,160.7034,28.42,80,99,0.51,SB,1704177151
142,pucheng,27.9233,118.5333,18.27,55,50,0.58,CN,1704177153
143,aasiaat,68.7098,-52.8699,-20.88,88,63,3.96,GL,1704177154
144,mount pearl,47.5166,-52.7813,-5.02,86,75,5.14,CA,1704177154
145,pervomayskoye,43.919,46.7102,8.52,78,95,7.37,RU,1704177155
146,afaahiti,-17.75,-149.2833,26.93,83,100,4.52,PF,1704177157
147,lata,40.1629,-8.3327,12.82,81,100,2.48,PT,1704177158
148,clitheroe,53.8667,-2.4,9.74,89,100,5.78,GB,1704177158
149,tazacorte,28.629,-17.9293,18.54,87,0,4.12,ES,1704177159
150,pospelikha,51.95,81.7667,-0.5,79,93,11.03,RU,1704177160
151,port mathurin,-19.6833,63.4167,27.85,77,26,6.94,MU,1704177160
152,vernon,50.2581,-119.2691,3.34,100,100,0.51,CA,1704177161
153,longyearbyen,78.2186,15.6401,-6.09,63,40,5.14,SJ,1704177162
154,saipan,15.1355,145.701,29.39,74,20,5.66,MP,1704177162
155,hermanus,-34.4187,19.2345,23.22,68,14,4.35,ZA,1704177163
156,akrehamn,59.2667,5.1833,2.45,44,0,16.98,NO,1704177164
157,san antonio,29.4241,-98.4936,9.39,70,100,5.66,US,1704177084
158,xining,36.6167,101.7667,-0.56,30,0,1.33,CN,1704177165
159,kapa'a,22.0752,-159.319,22.18,80,75,4.63,US,1704177166
160,mingshui,36.7167,117.5,5.31,60,82,1.57,CN,1704177166
161,shiloh,38.5614,-89.8973,0.42,78,100,1.79,US,1704177167
162,santana,-0.0583,-51.1817,29.1,89,20,1.03,BR,1704177168
163,keflavik,64.0049,-22.5624,3.95,93,75,6.69,IS,1704177168
164,kodiak,57.79,-152.4072,3.73,93,100,11.32,US,1704177044
165,koryazhma,61.3143,47.1691,-35.61,99,43,1.01,RU,1704177169
166,i-n-salah,27.1935,2.4607,13.26,29,9,4.16,DZ,1704177170
167,punta arenas,-53.15,-70.9167,12.06,76,100,1.54,CL,1704177128
168,titel,45.2061,20.2944,5.08,83,72,2.82,RS,1704177171
169,champerico,14.3,-91.9167,24.79,78,0,1.22,GT,1704177172
170,ribeira grande,38.5167,-28.7,16.54,88,100,2.68,PT,1704177173
171,hays,30.0502,-98.0336,6.88,82,76,0.89,US,1704177077
172,constantia,44.1833,28.65,6.5,81,100,2.71,RO,1704177174
173,hithadhoo,-0.6,73.0833,27.86,74,60,1.99,MV,1704177175
174,east london,-33.0153,27.9116,20.52,88,100,5.66,ZA,1704177175
175,touros,-5.1989,-35.4608,25.36,85,71,2.09,BR,1704177176
176,bethanie,-26.4833,17.15,28.65,31,0,2.58,NA,1704177177
177,belmonte,-15.8631,-38.8828,24.96,85,100,3.15,BR,1704177177
178,rouyn-noranda,48.2398,-79.0288,-5.95,79,100,6.69,CA,1704176882
179,fada,9.5667,8.3,22.24,21,50,1.97,NG,1704177178
180,remire-montjoly,4.9167,-52.2667,27.02,83,75,2.06,GF,1704177179
181,san patricio,28.017,-97.5169,12.97,75,100,4.04,US,1704177180
182,polyarnyy,69.1989,33.4478,-17.64,85,100,7.98,RU,1704177180
183,nar'yan-mar,67.6713,53.087,-25.5,100,76,1.79,RU,1704177181
184,huron,41.1501,-82.5499,0.01,79,13,3.09,US,1704177182
185,portland,45.5234,-122.6762,7.25,82,100,4.92,US,1704177073
186,sampit,-2.5333,112.95,30.4,67,99,1.89,ID,1704177184
187,lihue,21.9789,-159.3672,21.77,81,75,4.63,US,1704177185
188,castillos,-34.1667,-53.8333,17.59,84,98,2.7,UY,1704177185
189,bang saphan,11.2126,99.5117,31.18,52,29,3.3,TH,1704177186
190,hadibu,12.65,54.0333,26.08,61,99,5.54,YE,1704177187
191,colchani,-20.3,-66.9333,11.93,56,100,2.21,BO,1704177187
192,nagqu,31.5,92.0,-6.59,40,35,2.49,CN,1704177188
193,undurkhaan,47.3194,110.6556,-15.55,84,2,2.33,MN,1704177189
194,zalingei,12.9096,23.4741,22.27,13,28,1.8,SD,1704177189
195,klyuchi,52.2667,79.1667,-0.22,96,100,6.86,RU,1704177191
196,pizhou,34.3114,117.9503,6.83,55,100,2.62,CN,1704177191
197,mahina,-17.5065,-149.489,27.87,74,75,1.03,PF,1704177192
198,carloforte,39.145,8.3058,13.26,75,57,4.16,IT,1704177193
199,puerto baquerizo moreno,-0.9,-89.6,24.1,89,4,3.76,EC,1704177010
200,pittsfield,42.4501,-73.2454,-4.3,83,75,5.14,US,1704177071
201,minden,52.2833,8.9167,6.12,89,100,9.26,DE,1704177195
202,luau,-10.7073,22.2247,19.3,97,100,0.47,AO,1704177195
203,tual,-5.6667,132.75,28.79,76,100,3.63,ID,1704177196
204,laibin,23.7,109.2667,18.11,83,100,4.33,CN,1704177197
205,barra dos coqueiros,-10.9089,-37.0386,27.01,78,75,1.54,BR,1704177198
206,sinabang,2.4803,96.3801,29.15,70,40,0.62,ID,1704177198
207,alvaraes,-3.2208,-64.8042,25.09,89,99,1.11,BR,1704177199
208,yorkton,51.2167,-102.4677,-2.09,80,100,5.66,CA,1704177200
209,camabatela,-8.1881,15.375,20.33,85,84,0.87,AO,1704177200
210,inarajan village,13.2736,144.7484,30.55,88,74,6.41,GU,1704177201
211,ryotsu-minato,38.0833,138.4333,7.93,70,89,3.88,JP,1704177202
212,zaozersk,69.4005,32.4476,-16.46,80,100,8.45,RU,1704177203
213,neftcala,39.3742,49.2472,10.56,80,100,2.93,AZ,1704177203
214,valdivia,-39.8142,-73.2459,9.05,84,4,0.99,CL,1704177125
215,pangody,65.85,74.4859,-30.66,94,6,4.59,RU,1704177204
216,spitak,40.8322,44.2673,-5.2,58,100,2.76,AM,1704177205
217,lompoc,34.6391,-120.4579,11.62,87,0,2.57,US,1704177012
218,afua,-0.1567,-50.3867,23.99,96,98,2.15,BR,1704177206
219,kastsyukovichy,53.3516,32.0506,-8.49,84,100,7.99,BY,1704177207
220,yeniseysk,58.4497,92.1703,-13.36,95,100,4.92,RU,1704177028
221,limoeiro do norte,-5.1456,-38.0981,24.65,88,100,1.27,BR,1704177208
222,port isabel,26.0734,-97.2086,21.02,89,75,3.09,US,1704177209
223,anapa,44.8908,37.3239,11.19,93,75,9.0,RU,1704177210
224,kihangara,-2.5833,33.35,19.17,91,100,3.06,TZ,1704177210
225,bafoulabe,13.8065,-10.8321,22.33,14,100,1.03,ML,1704177211
226,seydi,39.4816,62.9137,8.13,47,100,3.53,TM,1704177211
227,badger,64.8,-147.5333,-21.05,82,0,4.12,US,1704177212
228,rio grande,-32.035,-52.0986,22.19,87,92,5.85,BR,1704177134
229,khanty-mansiysk,61.0042,69.0019,-26.61,69,75,4.02,RU,1704177213
230,borogontsy,62.6683,131.1683,-32.62,99,97,1.57,RU,1704177214
231,alice springs,-23.7,133.8833,41.75,8,100,6.69,AU,1704177215
232,lerwick,60.1545,-1.1494,5.0,93,100,15.72,GB,1704177216
233,pariaman,-0.619,100.12,32.03,79,53,2.74,ID,1704177216
234,saint-joseph,-21.3667,55.6167,25.21,91,100,2.86,RE,1704177217
235,polewali,-3.4324,119.3435,29.56,76,100,1.39,ID,1704177218
236,prokop'yevsk,53.9059,86.719,-1.24,92,100,6.9,RU,1704177218
237,coquimbo,-29.9533,-71.3436,15.85,94,0,0.51,CL,1704177162
238,karachi,24.9056,67.0822,20.9,37,0,3.6,PK,1704177000
239,coxen hole,16.3244,-86.5366,24.6,83,75,4.12,HN,1704177220
240,east end,34.5507,-92.341,-0.4,91,14,1.48,US,1704177221
241,tura,25.5198,90.2201,24.26,36,0,1.58,IN,1704177221
242,kolonia,50.9333,6.95,10.79,93,100,5.66,DE,1704177222
243,kapuskasing,49.4169,-82.4331,-1.95,86,100,7.2,CA,1704177223
244,acarau,-2.8856,-40.12,25.67,83,100,1.9,BR,1704177224
245,nova sintra,14.8667,-24.7167,22.01,60,100,4.73,CV,1704177224
246,la passe,45.5549,-0.8967,10.13,81,100,6.49,FR,1704177225
247,urmary,55.6789,47.944,-29.57,98,80,0.65,RU,1704177226
248,peniche,39.3558,-9.3811,15.87,93,81,6.22,PT,1704177226
249,west bay,19.3667,-81.4167,24.44,81,56,0.89,KY,1704177228
250,axim,4.8699,-2.2405,26.72,79,100,2.04,GH,1704177228
251,lautoka,-17.6167,177.4667,28.92,74,40,5.14,FJ,1704177229
252,hammerfest,70.6634,23.6821,-4.75,80,75,4.12,NO,1704177230
253,ust-nera,64.5667,143.2,-42.85,98,78,1.81,RU,1704177230
254,sterling,39.0062,-77.4286,4.44,76,100,7.2,US,1704176948
255,udachny,66.4167,112.4,-32.48,99,100,2.15,RU,1704177232
256,herzogenbuchsee,47.188,7.7062,8.15,92,100,6.07,CH,1704177233
257,waddan,29.1614,16.139,13.61,48,95,2.63,LY,1704177233
258,gassol,8.5333,10.4667,24.78,20,100,2.94,NG,1704177235
259,tazovsky,67.4667,78.7,-32.42,95,6,3.82,RU,1704177235
260,pacific grove,36.6177,-121.9166,9.8,88,0,2.57,US,1704177236
261,weno,7.4515,151.8468,25.97,94,100,2.06,FM,1704177237
262,massakory,12.996,15.7293,21.82,17,100,4.87,TD,1704177237
263,pisco,-13.7,-76.2167,22.03,88,0,3.6,PE,1704177238
264,sarkand,45.41,79.9186,4.86,86,24,2.05,KZ,1704177239
265,nago,26.5881,127.9761,22.24,54,37,2.56,JP,1704177239
266,sitka,57.0531,-135.33,6.94,53,100,6.69,US,1704177240
267,antsiranana,-12.2787,49.2917,29.42,70,20,3.09,MG,1704177240
268,tapes,-30.6733,-51.3958,22.22,88,99,3.99,BR,1704177242
269,colby,39.3958,-101.0524,-2.2,89,0,2.57,US,1704177242
270,karratha,-20.7377,116.8463,32.6,43,0,9.71,AU,1704177244
271,freetown,8.484,-13.2299,24.84,94,20,1.54,SL,1704177245
272,vilhena,-12.7406,-60.1458,20.88,89,94,1.08,BR,1704177245
273,colonia,50.9333,6.95,10.79,93,100,5.66,DE,1704177176
274,tralee,52.2704,-9.7026,8.94,96,100,1.75,IE,1704177247
275,usinsk,65.9939,57.5281,-31.07,99,6,2.24,RU,1704177247
276,aykhal,66.0,111.5,-31.74,99,100,2.46,RU,1704177249
277,bamboo flat,11.7,92.7167,30.05,70,20,5.14,IN,1704177250
278,mar del plata,-38.0023,-57.5575,19.37,83,10,0.89,AR,1704177231
279,kolonia town,6.964,158.206,30.0,74,40,3.09,FM,1704177251
280,astara,38.5,48.6667,2.39,67,42,1.3,AZ,1704177252
281,tidjikja,18.5564,-11.4271,18.98,13,100,5.3,MR,1704177252
282,petatlan,17.5167,-101.2667,21.97,70,6,1.48,MX,1704177253
283,sijunjung,-0.6876,100.9537,28.86,81,85,1.56,ID,1704177254
284,el-tor,28.2364,33.6254,19.08,45,0,7.72,EG,1704177254
285,vanino,49.0869,140.2543,-10.04,89,100,1.39,RU,1704177255
286,tecpan de galeana,17.25,-100.6833,20.71,68,3,2.0,MX,1704177256
287,crane,31.3974,-102.3501,6.49,56,100,4.58,US,1704177257
288,kavaratti,10.5669,72.642,27.43,75,88,4.06,IN,1704177258
289,zaysan,47.4667,84.8667,-1.92,88,83,1.42,KZ,1704177258
290,mandi bahauddin,32.5834,73.4843,20.31,19,0,1.48,PK,1704177259
291,hasaki,35.7333,140.8333,11.27,62,100,3.39,JP,1704177259
292,singaraja,-8.112,115.0882,30.23,74,90,1.28,ID,1704177260
293,vangaindrano,-23.35,47.6,24.39,91,100,5.55,MG,1704177261
294,egilsstadir,65.2653,-14.3948,4.95,81,75,2.57,IS,1704177261
295,qurayyat,31.3318,37.3428,8.1,76,20,0.0,SA,1704177262
296,san jose del cabo,23.0589,-109.6977,22.08,86,100,0.45,MX,1704177263
297,bismarck,46.8083,-100.7837,0.91,86,0,4.63,US,1704177038
298,sao joao da barra,-21.6403,-41.0511,21.74,90,100,2.37,BR,1704177264
299,yeppoon,-23.1333,150.7333,32.88,69,18,3.72,AU,1704177265
300,calama,-22.4667,-68.9333,10.27,53,0,4.63,CL,1704177165
301,kasongo,-4.45,26.6667,23.44,83,100,1.5,CD,1704177266
302,abu jibeha,11.4562,31.2285,25.74,20,29,4.64,SD,1704177267
303,rikaze,29.25,88.8833,2.96,11,0,2.1,CN,1704177268
304,port shepstone,-30.7414,30.455,21.6,76,100,4.17,ZA,1704177268
305,tosontsengel,48.7567,98.2839,-14.92,80,10,0.77,MN,1704177269
306,kurchatov,51.6601,35.6521,0.79,100,100,2.16,RU,1704177270
307,kayangel,8.0823,134.7173,28.91,72,31,2.7,PW,1704177271
308,andergrove,-21.0833,149.1833,28.69,72,12,3.96,AU,1704177272
309,bay roberts,47.5999,-53.2648,-4.36,81,4,2.24,CA,1704177272
310,malvan,16.0667,73.4667,28.86,46,9,3.61,IN,1704177273
311,kiunga,-6.1219,141.2906,26.74,84,100,0.37,PG,1704177274
312,paramonga,-10.6667,-77.8333,21.14,87,99,3.6,PE,1704177274
313,thames,-37.1333,175.5333,18.46,64,18,3.86,NZ,1704177275
314,santo angelo,-28.2992,-54.2631,19.73,88,4,1.67,BR,1704177275
315,praia da vitoria,38.7333,-27.0667,16.53,88,40,4.49,PT,1704177276
316,yanbu,24.0891,38.0637,18.02,82,0,0.0,SA,1704177277
317,pochep,52.9336,33.4464,-7.55,93,100,8.36,RU,1704177278
318,port lincoln,-34.7333,135.8667,21.11,68,93,6.75,AU,1704177278
319,dudinka,69.4058,86.1778,-36.29,98,25,2.24,RU,1704177011
320,haiku-pauwela,20.9219,-156.3051,23.36,77,20,7.72,US,1704177279
321,marka,1.7159,44.7717,29.37,59,92,7.78,SO,1704177280
322,acapulco de juarez,16.8634,-99.8901,22.9,78,0,1.54,MX,1704177140
323,hami,42.8,93.45,-1.47,55,8,0.87,CN,1704177281
324,verkhnyaya salda,58.0456,60.5533,-24.79,96,100,3.44,RU,1704177283
325,palmer,42.1584,-72.3287,-2.77,79,0,0.0,US,1704177283
326,worthington,40.0931,-83.018,1.35,81,100,2.57,US,1704177284
327,magistral'nyy,56.1725,107.4458,-14.79,89,36,1.1,RU,1704177284
328,villa gesell,-37.2639,-56.973,18.36,84,6,3.55,AR,1704177285
329,patu,-6.11,-37.6367,23.85,88,100,2.78,BR,1704177286
330,ugoofaaru,5.6667,73.0,27.67,77,94,4.57,MV,1704177287
331,qamdo,31.1667,97.2333,-3.08,28,75,0.69,CN,1704177287
332,padang,-0.9492,100.3543,32.03,84,95,1.98,ID,1704177288
333,timbuktu,16.7735,-3.0074,18.59,15,35,4.01,ML,1704177041
334,klaksvik,62.2266,-6.589,6.51,87,96,14.84,FO,1704177289
335,saint-philippe,-21.3585,55.7679,25.77,89,100,4.5,RE,1704177290
336,kailua-kona,19.6406,-155.9956,25.98,74,100,1.35,US,1704177290
337,tulum,20.2167,-87.4667,18.7,85,12,2.44,MX,1704177291
338,the pas,53.8251,-101.2541,-3.99,74,100,5.66,CA,1704177292
339,jining,35.405,116.5814,8.66,48,0,1.96,CN,1704177223
340,nabire,-3.3667,135.4833,29.18,75,100,1.88,ID,1704177293
341,dakhla,23.6848,-15.958,16.01,77,0,3.6,EH,1704177294
342,kaa-khem,51.6833,94.7333,-17.0,87,100,0.84,RU,1704177294
343,waiuku,-37.25,174.75,20.18,78,5,3.3,NZ,1704177295
344,suining,30.508,105.5733,13.39,73,93,2.26,CN,1704177295
345,boa vista,2.8197,-60.6733,26.99,69,40,4.63,BR,1704177056
346,noormarkku,61.5927,21.8685,-21.12,77,0,2.06,FI,1704177239
347,pontes e lacerda,-15.2261,-59.3353,22.94,92,100,1.39,BR,1704177297
348,plastun,44.7561,136.2939,-4.28,54,84,3.58,RU,1704177298
349,marbletown,41.8834,-74.1132,-2.59,73,1,0.82,US,1704177299
350,mil'kovo,55.6078,37.7956,-17.55,74,88,5.72,RU,1704177299
351,tchintabaraden,15.8969,5.7985,17.43,19,100,4.5,NE,1704177300
352,malango,-2.9627,119.9001,25.69,86,100,0.56,ID,1704177301
353,lusaka,-15.4067,28.2871,23.74,69,37,2.9,ZM,1704177249
354,ghauspur,28.1391,69.0831,23.64,18,3,0.41,PK,1704177302
355,muang khong,14.1167,105.85,35.64,31,10,1.88,LA,1704177303
356,okha,53.5739,142.9478,-23.11,96,100,1.86,RU,1704177303
357,portales,34.1862,-103.3344,2.83,52,100,3.35,US,1704177304
358,port elizabeth,-33.918,25.5701,22.28,86,40,7.2,ZA,1704177305
359,khandyga,62.6667,135.6,-30.36,93,98,1.03,RU,1704177306
360,nemuro,43.3236,145.575,1.48,77,100,8.03,JP,1704177307
361,markaz-e hukumat-e darweshan,31.1323,64.1934,14.96,31,95,0.45,AF,1704177307
362,lae,-6.7221,146.9847,32.37,75,100,2.8,PG,1704177308
363,al kharijah,25.4514,30.5464,15.7,56,0,4.66,EG,1704177309
364,bolobo,-2.1667,16.2333,26.05,76,80,1.47,CD,1704177309
365,grand-lahou,5.1367,-5.0242,26.67,82,23,1.75,CI,1704177310
366,geraldton,-28.7667,114.6,26.23,50,0,10.29,AU,1704177311
367,fortuna,40.5982,-124.1573,9.96,93,0,5.14,US,1704177311
368,urzhar,47.093,81.6294,0.07,72,70,2.41,KZ,1704177312
369,calvinia,-31.4707,19.776,22.9,60,0,5.66,ZA,1704177313
370,mundybash,53.211,87.2983,-1.81,91,100,1.58,RU,1704177313
371,motueka,-41.1333,173.0167,20.61,70,95,0.76,NZ,1704177315
372,mishkino,55.3389,63.9175,-20.51,93,100,6.3,RU,1704177315
373,taltal,-25.4,-70.4833,17.86,86,60,1.03,CL,1704177316
374,tolanaro,-25.0319,46.9987,24.04,94,75,7.2,MG,1704177317
375,tara,56.8944,74.371,-8.95,95,97,3.53,RU,1704177144
376,ulaangom,49.9811,92.0667,-18.99,95,100,1.09,MN,1704177318
377,bikenibeu village,1.3673,173.1241,27.98,94,75,2.57,KI,1704177319
378,soc trang,9.6033,105.98,33.34,48,64,2.57,VN,1704177319
379,island harbour,50.724,-1.2758,12.04,93,100,1.79,GB,1704177320
380,loches,47.1333,1.0,10.19,80,100,10.86,FR,1704177321
381,menongue,-14.6585,17.691,22.35,59,100,1.41,AO,1704177321
382,papao,-17.75,-149.55,27.82,77,100,3.24,PF,1704177322
383,babura,12.7731,9.0158,18.13,20,15,3.18,NG,1704177323
384,calingasta,-31.3308,-69.4078,21.33,53,16,0.79,AR,1704177323
385,ormara,25.2088,64.6357,22.92,64,1,2.08,PK,1704177324
386,taunggyi,20.7833,97.0333,22.33,28,0,1.53,MM,1704177325
387,tindouf,27.6711,-8.1474,14.15,24,0,3.62,DZ,1704177206
388,yaren,-0.5472,166.916,29.55,74,15,6.98,NR,1704177326
389,luzino,54.9481,73.0353,-0.13,86,75,5.0,RU,1704177327
390,san antonio de pale,-1.4014,5.6325,27.33,79,98,3.83,GQ,1704177328
391,saraipali,21.3333,83.0,27.15,35,0,1.84,IN,1704177328
392,pokoynoye,44.8097,44.2517,4.51,86,100,4.61,RU,1704177329
393,taoudenni,22.6783,-3.9836,16.86,23,100,4.47,ML,1704177330
394,sao jose da coroa grande,-8.8978,-35.1478,26.09,80,44,3.1,BR,1704177330
395,sao tome,0.3365,6.7273,27.54,76,62,2.71,ST,1704177331
396,ath thawrah,35.8469,38.5443,12.09,62,100,3.18,SY,1704177332
397,manokwari,-0.8667,134.0833,28.3,76,88,1.84,ID,1704177332
398,yilan,24.757,121.753,23.92,66,87,2.44,TW,1704177333
399,holualoa,19.6228,-155.9522,23.91,74,100,1.22,US,1704177272
400,arraial do cabo,-22.9661,-42.0278,23.1,83,100,3.36,BR,1704177334
401,cole harbour,44.6724,-63.4751,-4.29,79,14,1.79,CA,1704177043
402,tadine,-21.55,167.8833,26.07,73,8,5.74,NC,1704177335
403,jaisalmer,26.9147,70.9181,21.54,13,0,3.87,IN,1704177336
404,sao felix do xingu,-6.6447,-51.995,21.57,99,34,0.33,BR,1704177337
405,aswan,24.0934,32.907,17.63,49,0,5.7,EG,1704177296
406,leua,48.2156,18.6071,4.16,90,100,0.71,SK,1704177339
407,muroto-misakicho,33.2833,134.15,12.66,59,2,2.41,JP,1704177340
408,eilat,29.5581,34.9482,12.91,67,0,0.0,IL,1704177341
409,irituia,-1.7711,-47.4381,23.4,97,100,0.95,BR,1704177342
410,waingapu,-9.6567,120.2641,32.23,60,29,3.92,ID,1704177342
411,collie,-33.3667,116.15,24.87,41,89,5.88,AU,1704177344
412,taytay,14.5678,121.1394,31.7,74,40,3.6,PH,1704177344
413,san sebastian de la gomera,28.0916,-17.1133,19.2,88,0,0.0,ES,1704177345
414,masindi,1.6744,31.715,20.23,85,100,1.94,UG,1704177346
415,ponta delgada,37.7333,-25.6667,18.44,94,75,7.2,PT,1704177346
416,tommot,58.9564,126.2925,-15.12,98,100,0.62,RU,1704177347
417,powell,40.1578,-83.0752,1.31,81,100,3.6,US,1704177348
418,ust'-uda,54.1742,103.0304,-9.03,95,100,1.39,RU,1704177348
419,suva,-18.1416,178.4415,27.71,83,75,4.12,FJ,1704177349
420,zemio,5.0314,25.1361,28.16,22,12,2.71,CF,1704177349
421,boguchany,58.3814,97.4531,-15.64,87,100,1.79,RU,1704177350
422,altay,47.8667,88.1167,-2.33,77,100,1.3,CN,1704177351
423,dharmadam,11.7833,75.4333,30.01,60,76,3.5,IN,1704177351
424,wenatchee,47.4235,-120.3103,5.21,90,100,2.06,US,1704177352
425,letlhakeng,-24.0944,25.0298,27.46,50,0,5.88,BW,1704177353
426,perelyub,51.8667,50.3667,-6.88,75,100,2.88,RU,1704177353
427,ola,59.5833,151.2833,-26.24,90,72,2.6,RU,1704177354
428,carnarvon,-24.8667,113.6333,26.36,61,0,12.69,AU,1704177355
429,alofi,-19.0595,-169.9187,24.94,83,75,2.57,NU,1704177355
430,vila velha,-20.3297,-40.2925,22.97,94,75,2.06,BR,1704177356
431,raduzhny,62.0961,77.475,-24.65,95,100,5.18,RU,1704177357
432,bezhetsk,57.7851,36.6965,-30.52,100,21,2.12,RU,1704177357
433,galliano,29.4422,-90.2992,11.0,62,0,5.14,US,1704177358
434,kayan,16.9056,96.5631,30.08,30,5,2.63,MM,1704177360
435,puerto aysen,-45.4,-72.7,11.6,97,100,1.71,CL,1704177145
436,tarfaya,27.9358,-12.9218,17.75,70,0,4.2,MA,1704177361
437,sarykemer,43.0,71.5,6.71,40,100,3.55,KZ,1704177115
438,brisas de zicatela,15.8369,-97.0419,24.05,65,0,2.4,MX,1704177362
439,st. john's,47.5649,-52.7093,-4.56,86,75,5.14,CA,1704177363
440,baotou,40.6522,109.8222,-4.58,68,1,3.7,CN,1704177227
441,cabo san lucas,22.8909,-109.9124,21.53,70,100,5.89,MX,1704177364
442,bhimunipatnam,17.8833,83.4333,25.73,61,6,3.89,IN,1704177365
443,tromso,69.6496,18.957,-8.99,67,100,2.57,NO,1704177366
444,katsuren-haebaru,26.3369,127.8719,22.21,46,40,2.06,JP,1704177366
445,aitape,-3.1374,142.3475,29.51,71,96,1.95,PG,1704177367
446,boca suno,-0.7167,-77.1333,21.87,98,100,0.81,EC,1704177368
447,bijie,27.3125,105.2942,7.5,71,100,2.89,CN,1704177368
448,monguno,12.6786,13.6079,21.98,45,100,4.51,NG,1704177369
449,havre,49.5833,0.3333,12.22,94,100,8.23,FR,1704177370
450,shetpe,44.1667,52.1167,3.9,50,9,3.07,KZ,1704177370
451,taulaga,-11.0553,-171.0883,28.99,72,100,3.97,AS,1704177371
452,el calafate,-50.3408,-72.2768,13.0,80,56,3.33,AR,1704177078
453,saldanha,-33.0117,17.9442,23.03,53,0,4.78,ZA,1704177372
454,iquique,-20.2208,-70.1431,22.02,79,96,0.24,CL,1704177119
455,ringim,12.1548,9.1619,18.38,19,7,2.65,NG,1704177373
456,raymondville,26.4815,-97.7831,19.41,85,100,4.13,US,1704177374
457,port alfred,-33.5906,26.891,22.73,75,74,9.69,ZA,1704177375
458,nova vicosa,-17.8919,-39.3719,23.63,91,100,0.56,BR,1704177375
459,hirara,24.8,125.2833,22.92,60,20,4.63,JP,1704177376
460,trairi,-3.2778,-39.2689,23.84,91,100,1.29,BR,1704177085
461,qiancheng,27.185,109.7654,9.08,88,100,1.47,CN,1704177377
462,mollendo,-17.0231,-72.0147,20.1,89,44,2.2,PE,1704177378
463,burang,30.25,81.1667,-3.45,20,0,1.49,CN,1704177379
464,oltinko'l,40.8011,72.1634,7.05,32,100,0.89,UZ,1704177379
465,abepura,-2.6333,140.5833,30.45,62,20,2.57,ID,1704177380
466,namibe,-15.1961,12.1522,24.3,54,15,4.37,AO,1704177381
467,anar darah,32.7587,61.654,13.36,33,65,2.57,AF,1704177381
468,luderitz,-26.6481,15.1594,21.32,76,36,1.92,NA,1704177382
469,rittman,40.9781,-81.7821,0.14,82,7,2.85,US,1704177383
470,malakal,9.5334,31.6605,28.33,21,6,5.43,SS,1704177383
471,howard springs,-12.497,131.047,34.37,61,100,4.93,AU,1704177384
472,bireun,5.203,96.7009,28.57,73,63,3.25,ID,1704177385
473,yomju-up,39.8933,124.5981,-0.28,87,98,0.27,KP,1704177385
474,north bend,43.4065,-124.2243,8.81,93,0,3.09,US,1704177193
475,kununurra,-15.7667,128.7333,37.99,41,100,3.6,AU,1704177387
476,virginia,37.5481,-77.4467,3.29,89,100,3.6,US,1704177164
477,sorong,-0.8833,131.25,28.83,75,66,1.4,ID,1704177362
478,laojunmiao,39.8333,97.7333,1.2,20,0,2.69,CN,1704177389
479,jianshui,23.6363,102.8264,22.22,33,1,4.58,CN,1704177390
480,cascais,38.6979,-9.4215,17.29,96,98,5.36,PT,1704177390
481,victoriaville,46.0501,-71.9658,-5.85,78,85,4.46,CA,1704177391
482,brokopondo,4.75,-55.1667,23.59,86,10,3.59,SR,1704177392
483,bodo,67.28,14.405,-8.46,53,0,13.38,NO,1704177297
484,porto velho,-8.7619,-63.9039,24.03,94,20,0.0,BR,1704177393
485,qui nhon,13.7667,109.2333,24.36,90,100,4.8,VN,1704177394
486,baiyin,36.5583,104.2081,1.09,29,0,1.21,CN,1704177394
487,vlore,40.4667,19.4897,13.78,79,100,1.92,AL,1704177131
488,stung treng,13.5259,105.9683,35.09,35,28,1.74,KH,1704177396
489,almyros,39.1822,22.7594,12.39,93,20,0.0,GR,1704177396
490,nuuk,64.1835,-51.7216,-1.66,43,100,2.57,GL,1704177397
491,syumsi,57.1111,51.6149,-24.09,97,98,0.09,RU,1704177398
492,alesund,62.4723,6.1549,3.08,52,0,6.17,NO,1704177398
493,olyokminsk,60.3736,120.4264,-11.7,88,100,3.09,RU,1704177322
494,kargasok,59.0556,80.8572,-12.06,95,100,2.36,RU,1704177399
495,egersund,58.4513,5.9997,0.77,68,100,17.96,NO,1704177400
496,karystos,38.0133,24.4161,15.56,79,100,2.5,GR,1704177401
497,walvis bay,-22.9575,14.5053,17.53,82,75,2.06,NA,1704177401
498,manggar,-2.8833,108.2667,29.14,72,100,2.81,ID,1704177402
499,dezhou,37.4486,116.2925,3.9,67,97,1.82,CN,1704177403
500,meadow lake,34.8014,-106.5436,3.97,43,100,0.41,US,1704177404
501,callao,-12.0667,-77.15,23.18,78,75,6.69,PE,1704177404
502,opole lubelskie,51.1478,21.969,4.21,91,100,4.67,PL,1704177405
503,fort bragg,35.139,-79.006,3.23,66,0,2.57,US,1704177406
504,disa,24.25,72.1667,25.89,34,0,1.25,IN,1704177406
505,kruisfontein,-34.0033,24.7314,21.05,76,77,4.54,ZA,1704177407
506,limon,10.0,-83.0333,24.47,82,28,1.53,CR,1704177408
507,antofagasta,-23.65,-70.4,19.6,82,42,1.26,CL,1704177409
508,smirnovo,54.5125,69.4222,-9.99,95,100,6.28,KZ,1704177409
509,san luis de la loma,17.2706,-100.8939,23.17,67,4,2.39,MX,1704177410
510,lucapa,-8.4192,20.7447,21.24,93,100,1.68,AO,1704177411
511,vaison-la-romaine,44.239,5.075,5.04,93,100,1.03,FR,1704177411
512,nanjing,32.0617,118.7778,7.95,77,100,4.35,CN,1704177412
513,yinchuan,38.4681,106.2731,2.91,26,0,1.85,CN,1704177413
514,igarka,67.4667,86.5833,-28.12,100,91,2.19,RU,1704177413
515,paita,-5.0892,-81.1144,22.05,84,81,4.33,PE,1704177414
516,san rafael,-34.6177,-68.3301,23.53,39,16,1.58,AR,1704177414
517,osakarovka,50.565,72.5692,-2.88,96,100,9.57,KZ,1704177415
518,nevada,39.2502,-116.7512,-2.47,56,6,0.4,US,1704177416
519,tiznit,29.5833,-9.5,13.56,23,0,2.81,MA,1704177417
520,aqadyr,48.2553,72.8483,-2.43,90,100,13.6,KZ,1704177418
521,katsuura,35.1333,140.3,8.01,91,100,3.15,JP,1704177418
522,kingston,17.997,-76.7936,25.53,89,75,1.54,JM,1704177340
523,cuyo,10.8525,121.0086,28.22,81,100,6.91,PH,1704177419
524,wewak,-3.5534,143.6268,29.15,72,63,2.35,PG,1704177420
525,karaton,-6.3424,106.1045,30.32,70,96,1.16,ID,1704177421
526,rio san juan,19.6439,-70.0763,23.5,85,47,1.94,DO,1704177421
527,boardman,41.0242,-80.6628,0.42,80,65,1.34,US,1704177422
528,guarapari,-20.6667,-40.4975,22.72,96,100,2.93,BR,1704177205
529,dungarpur,23.8333,73.7167,24.73,39,0,4.19,IN,1704177423
530,misliyah,17.4599,42.5572,27.27,63,0,1.98,SA,1704177424
531,bogale,16.2833,95.4,31.55,29,0,2.7,MM,1704177425
532,harnai,30.1005,67.9374,17.32,20,57,1.48,PK,1704177425
533,zag,46.9441,99.165,-18.34,85,8,0.71,MN,1704177426
534,saint-pierre,-21.3393,55.4781,25.82,89,75,0.0,RE,1704177427
535,sandnessjoen,66.0217,12.6316,-5.88,27,0,3.6,NO,1704177427
536,ghanzi,-21.5667,21.7833,31.03,31,100,6.33,BW,1704177428
537,kuala tungkal,-0.8167,103.4667,28.46,79,100,2.89,ID,1704177429
538,kish,26.5578,54.0194,24.15,60,0,5.14,IR,1704177429
539,chonchi,-42.6128,-73.8092,10.07,99,54,1.36,CL,1704177430
540,olenino,56.2092,33.4889,-18.68,83,22,4.2,RU,1704177431
541,kurayoshi,35.4333,133.8167,12.95,64,30,2.13,JP,1704177432
542,luwuk,-0.9516,122.7875,29.53,79,80,1.03,ID,1704177433
543,tamanrasset,22.785,5.5228,6.95,29,0,2.06,DZ,1704177433
544,tonj,7.2737,28.6822,29.49,21,8,3.99,SS,1704177434
545,blama,7.8736,-11.3433,21.17,99,39,0.62,SL,1704177435
546,utete,-7.986,38.758,28.8,79,83,3.13,TZ,1704177435
547,arteche,12.2645,125.4048,28.9,66,49,3.04,PH,1704177436
548,sabang,5.8933,95.3214,27.48,79,49,6.57,ID,1704177437
549,ust'-ilimsk,58.0006,102.6619,-20.31,100,58,1.79,RU,1704177437
550,yakeshi,49.2833,120.7333,-16.51,96,100,1.77,CN,1704177438
551,el rama,12.1596,-84.2195,21.46,99,37,1.86,NI,1704177439
552,neryungri,56.6709,124.6491,-23.74,97,92,0.26,RU,1704177439
553,ambodifotatra,-16.9833,49.85,31.03,70,75,4.12,MG,1704177440
554,quatre cocos,-20.2078,57.7625,29.06,74,100,7.09,MU,1704177441
555,revda,56.801,59.9303,-23.12,92,94,1.95,RU,1704177442
556,yuzhno-kurilsk,44.0306,145.8556,-2.01,72,100,5.12,RU,1704177442
557,maddela,16.3414,121.6849,26.06,84,89,1.24,PH,1704177443
558,warrenton,-28.114,24.8475,25.62,48,0,7.06,ZA,1704177444
559,huicungo,-7.2833,-76.8,21.9,99,93,0.55,PE,1704177445
560,santa cruz,-17.8,-63.1667,25.7,89,40,6.17,BO,1704177438
561,sinop,41.7711,34.8709,3.24,65,20,3.44,TR,1704177446
562,salekhard,66.53,66.6019,-31.16,99,79,1.54,RU,1704177447
563,suomussalmi,64.8869,28.9078,-26.95,99,14,1.55,FI,1704177448
564,katabu,-4.9333,122.5167,31.72,61,78,0.54,ID,1704177448
565,leteri,24.05,77.4,24.11,39,0,3.09,IN,1704177449
566,guerrero negro,27.9769,-114.0611,15.66,73,0,3.42,MX,1704177450
567,qarauyl,48.9451,79.255,-1.28,66,9,12.23,KZ,1704177452
568,machali,-34.1833,-70.6667,17.63,54,0,0.71,CL,1704177452
569,boulsa,12.6675,-0.5758,20.36,16,57,3.8,BF,1704177453
570,prado,-17.3411,-39.2208,23.62,92,100,1.52,BR,1704177454
571,bardai,11.65,7.2333,17.68,19,0,4.46,NG,1704177455
572,bel ombre,-4.6167,55.4167,30.91,62,40,3.09,SC,1704177455
573,isangel,-19.55,169.2667,29.06,79,75,3.09,VU,1704177456
574,mazeikiai,56.3167,22.3333,-7.66,50,100,5.68,LT,1704177457
575,artemovskiy,57.3555,61.8686,-23.93,93,100,4.04,RU,1704177457
576,vorkuta,67.5,64.0,-33.9,100,9,0.98,RU,1704177458
577,mutuali,-14.8706,37.0044,28.55,59,36,0.99,MZ,1704177459
578,suntar,62.1444,117.6319,-14.54,96,100,2.17,RU,1704177460
579,san fernando,15.0286,120.6898,31.85,50,100,5.95,PH,1704177460
580,baissa,7.2333,10.6333,25.76,28,47,0.32,NG,1704177461
581,codrington,-38.2667,141.9667,20.85,76,42,7.48,AU,1704177462
582,krutinka,56.0055,71.5113,-12.8,94,99,4.67,RU,1704177462
583,murzuq,25.9155,13.9184,12.02,43,68,3.19,LY,1704177463
584,christchurch,-43.5333,172.6333,19.11,63,40,5.66,NZ,1704177457
585,valparaiso,-33.0393,-71.6273,13.8,88,0,1.54,CL,1704177464
586,dinga,32.6398,73.722,20.0,19,0,1.73,PK,1704177465
587,tofol,5.3248,163.0078,28.53,84,19,7.83,FM,1704177465
588,nishinoomote,30.7333,131.0,16.31,63,20,2.06,JP,1704177466
589,xianning,29.8833,114.2167,6.81,89,100,2.28,CN,1704177467
590,fukagawa,43.7081,142.0392,2.03,95,100,4.83,JP,1704177468
591,kitale,1.0157,35.0062,21.84,60,0,1.22,KE,1704177469
592,sur,22.5667,59.5289,25.86,51,0,3.62,OM,1704177469
593,dhuusamarreeb,5.535,46.3861,27.9,43,38,7.83,SO,1704177470
